{"result":[
    {
        "id":"1",
        "city_name":"上海",
        "city_pre":"S",
        "city_pinyin":"Shanghai",
        "city_short":"sh",
        "count":"316",
        "cinema":[
            {
                "id":"18",
                "cityName":"上海",
                "cinemaName":"上海和平影都",
                "address":"西藏中路290号(汉口路口)",
                "telephone":"021-63225252",
                "latitude":"31.2387",
                "longitude":"121.4825",
                "trafficRoutes":"地铁1、2、8号线、至人民广场下车14号出口即达。",
                "distance":334
            },
            {
                "id":"25",
                "cityName":"上海",
                "cinemaName":"上海大光明电影院",
                "address":"南京西路216号",
                "telephone":"021-63274260",
                "latitude":"31.23901",
                "longitude":"121.4778",
                "trafficRoutes":"地铁一、二、八号线 人民广场站9号出口，公交15路、18路、20路、37路、46路、451路、隧道3、4、6线等到达",
                "distance":382
            },
            {
                "id":"24",
                "cityName":"上海",
                "cinemaName":"SFC上影影城（新世界店）",
                "address":"南京西路2～68号新世界城12楼",
                "telephone":"021-63596810",
                "latitude":"31.24168",
                "longitude":"121.4804",
                "trafficRoutes":"乘地铁2号线、15路、21路、939路、20路、37路、19路公交车",
                "distance":594
            },
            {
                "id":"77",
                "cityName":"上海",
                "cinemaName":"上海浙江电影院",
                "address":"上海市浙江中路123号",
                "telephone":"021-63520473-81",
                "latitude":"31.23779",
                "longitude":"121.4864",
                "trafficRoutes":"公共交通：地铁1号、2号线 ，公交:14、49、18、20、37、928、930等",
                "distance":600
            },
            {
                "id":"97",
                "cityName":"上海",
                "cinemaName":"大上海电影院",
                "address":"上海市西藏中路500号第一百货商店(新楼)8楼",
                "telephone":"021-63616078",
                "latitude":"31.24193",
                "longitude":"121.4808",
                "trafficRoutes":"轨道交通1、2、8号线 人民广场站南京路步行街出口,18路、952路 、46路、916路、518路、108路、隧道三线、167、新川线等",
                "distance":624
            },
            {
                "id":"81",
                "cityName":"上海",
                "cinemaName":"上海新光影艺苑",
                "address":"宁波路586号（南京路步行街食品一店后）",
                "telephone":"021-63515866",
                "latitude":"31.24269",
                "longitude":"121.483",
                "trafficRoutes":"地铁1、2、8号线 18路 46路 15路108路 21路",
                "distance":751
            },
            {
                "id":"20",
                "cityName":"上海",
                "cinemaName":"上海兰生典尚影院",
                "address":"淮海中路8号  柳林路1号 兰生大厦5层 ",
                "telephone":"021-63190000-5558",
                "latitude":"31.23159",
                "longitude":"121.4863",
                "trafficRoutes":"地铁一号线、八号线、18、17、135、783、782、864、220、911、920、926、23等等",
                "distance":776
            },
            {
                "id":"66",
                "cityName":"上海",
                "cinemaName":"上海万裕国际影城（淮海店）",
                "address":"上海市淮海中路99号大上海时代广场六楼",
                "telephone":"021-63910363",
                "latitude":"31.23021",
                "longitude":"121.4851",
                "trafficRoutes":"地铁8路线、930路、802路、18路、518路公交车",
                "distance":820
            },
            {
                "id":"76",
                "cityName":"上海",
                "cinemaName":"黄浦剧场",
                "address":"北京东路780号（近西藏南路）",
                "telephone":"021-63508739",
                "latitude":"31.24429",
                "longitude":"121.4821",
                "trafficRoutes":"乘地铁2号线、15路、21路、939路、20路、37路、19路公交车",
                "distance":901
            },
            {
                "id":"30",
                "cityName":"上海",
                "cinemaName":"上海UME国际影城（新天地店）",
                "address":"★新天地店：黄浦区兴业路123弄新天地南里6号5楼(新天地广场内) ",
                "telephone":"021-63733333",
                "latitude":"31.22519",
                "longitude":"121.482",
                "trafficRoutes":"乘坐02，42，146，781，864，911，920，926，932，945，大桥一线、隧道八线等公交车或地铁一号线黄陂路站下",
                "distance":1252
            },
            {
                "id":"8",
                "cityName":"上海",
                "cinemaName":"大悦城新恒星影城",
                "address":"上海市静安区西藏北路166号大悦城10-11楼",
                "telephone":"021-36527206",
                "latitude":"31.24876",
                "longitude":"121.4787",
                "trafficRoutes":"公交19、46、58、41、916、802、518、108、18等公车到达。地铁8号线、12号线曲阜路站下，1号口出",
                "distance":1391
            },
            {
                "id":"127750",
                "cityName":"上海",
                "cinemaName":"上海科技影城",
                "address":"上海市黄浦区南昌路59号3楼",
                "telephone":"021-53822040-60010",
                "latitude":"31.22425",
                "longitude":"121.4732",
                "trafficRoutes":"乘坐地铁地铁1号线、10号线至陕西南路 站到达，乘坐公车911、920、932、146、167至淮海路思南路站到达",
                "distance":1508
            },
            {
                "id":"38",
                "cityName":"上海",
                "cinemaName":"上海环艺电影城",
                "address":"上海市南京西路1038号梅龙镇广场10楼",
                "telephone":"021-62187109",
                "latitude":"31.23541",
                "longitude":"121.4627",
                "trafficRoutes":"地铁2、12、13号线南京西路站；公交 20、21、15、112、23、738、24路等\n",
                "distance":1681
            },
            {
                "id":"60",
                "cityName":"上海",
                "cinemaName":"上海国泰电影院",
                "address":"淮海中路870号",
                "telephone":"021-54042095",
                "latitude":"31.22422",
                "longitude":"121.4678",
                "trafficRoutes":"乘地铁1号线陕西南路站（3、4号出口）或地铁10号线陕西南路站（6号出口）下车，或乘920路、926路、945路、观光巴士1路、911路、128路、104路、41路、24路至淮海中路（瑞金二路或陕西南路）下车，步行至淮海中路870号（茂名南路口）上海国泰电影院",
                "distance":1801
            },
            {
                "id":"96",
                "cityName":"上海",
                "cinemaName":"上海百丽宫影城环贸iapm店",
                "address":"上海市徐汇区淮海中路999号环贸广场L6-1",
                "telephone":"021-64660718-8010",
                "latitude":"31.22187",
                "longitude":"121.4646",
                "trafficRoutes":"地铁1号线、10号线陕西南路站",
                "distance":2199
            },
            {
                "id":"104",
                "cityName":"上海",
                "cinemaName":"上海百美汇影城嘉里中心店",
                "address":"上海市静安区南京西路1551号 静安嘉里中心商场N4-01室",
                "telephone":"021-31006251",
                "latitude":"31.23086",
                "longitude":"121.4568",
                "trafficRoutes":"地铁2号线、7号线、静安寺站",
                "distance":2321
            },
            {
                "id":"83",
                "cityName":"上海",
                "cinemaName":"上海星美正大国际影城",
                "address":"浦东陆家嘴西路168号正大广场8层",
                "telephone":"021-50478026",
                "latitude":"31.24256",
                "longitude":"121.5059",
                "trafficRoutes":"地铁2号线、961路、795路、82路、985路、870路、583路、992路、798路公交车。",
                "distance":2530
            },
            {
                "id":"86",
                "cityName":"上海",
                "cinemaName":"上海星美国际影城",
                "address":"上海市虹口区海宁路330号",
                "telephone":"021-63240778",
                "latitude":"31.25661",
                "longitude":"121.4926",
                "trafficRoutes":"乘17、21、65、63、13、100、101、115、123、55、922、510、573、申川线路公共汽车到海宁路吴淞路站下，步行约3-5分钟即可到达。 轻轨三、四号线宝山路下，步行10分钟即可到达，地铁10号线 四川北路站下，步行约3-5分钟即可到达。",
                "distance":2540
            }
        ]

    },
    {
        "id":"2",
        "city_name":"北京",
        "city_pre":"B",
        "city_pinyin":"Beijing",
        "city_short":"bj",
        "count":"208",
        "cinema":[
            {
                "id":"4107",
                "cityName":"北京",
                "cinemaName":"北京耀莱成龙国际影城（王府井店）",
                "address":"北京市东城区王府井大街301号新燕莎金街购物广场地下一层西侧（地铁1号线王府井站出C2口向北步行200米路西）",
                "telephone":"010-65273227",
                "latitude":"39.9162",
                "longitude":"116.4171",
                "trafficRoutes":"公交车： 乘10、41、59、99、120、126、127、420路，到王府井站下车; 　　乘103、104、127、420、专2路、特11路，到王府井路口北站下车; 　　乘1、52、99路，到东单路口西站下车。 \n地铁：乘坐地铁1号线王府井站C2出口。",
                "distance":644
            },
            {
                "id":"548316",
                "cityName":"北京",
                "cinemaName":"北京传奇奢华影城崇文门店",
                "address":"北京市东城区东打磨厂街7号新活馆B1层",
                "telephone":"010-67086545",
                "latitude":"39.90579",
                "longitude":"116.4197",
                "trafficRoutes":"地铁：2号线崇文门站D口出，往西到祈年大街往南一个路口即到；5号线崇文门站西南口往西步行两分钟即到。\n公交：622路、20路、9路台基厂路口西站下车，往东步行300米即到。673路至崇文门西站下车，步行550米即可。\n",
                "distance":784
            },
            {
                "id":"196",
                "cityName":"北京",
                "cinemaName":"北京百老汇影城东方广场店",
                "address":"东城区东长安街1号东方广场地下一层BB65",
                "telephone":"010-85186778",
                "latitude":"39.91571",
                "longitude":"116.4209",
                "trafficRoutes":"1、4、37、52、728等路乘地铁1号线或5号线王府井站下车",
                "distance":809
            },
            {
                "id":"229",
                "cityName":"北京",
                "cinemaName":"横店电影城（北京王府井店）",
                "address":"北京王府井大街253号王府井百货大楼北馆8层",
                "telephone":"010-65231588",
                "latitude":"39.91965",
                "longitude":"116.417",
                "trafficRoutes":"乘坐41路、59路、120路、126路等至王府井路口南站到达",
                "distance":998
            },
            {
                "id":"194",
                "cityName":"北京",
                "cinemaName":"北京百老汇影城apm购物中心店",
                "address":"北京市王府井大街新东安广场6层",
                "telephone":"010-65281898",
                "latitude":"39.92114",
                "longitude":"116.4181",
                "trafficRoutes":"新东安市场站下车103、104、201、211、420等",
                "distance":1185
            },
            {
                "id":"193",
                "cityName":"北京",
                "cinemaName":"北京百老汇影城国瑞购物中心店",
                "address":"北京市崇文区崇文门外大街18号国瑞城首层、地下二层",
                "telephone":"010-67171338",
                "latitude":"39.90357",
                "longitude":"116.4267",
                "trafficRoutes":"行车路线：乘公交车39、43、25、116、684、685、723等路到花市路口南，乘12路到花市路口北；乘地铁5号线和2号线都可到崇文门下车，向南走，5号线可在磁器口下车。",
                "distance":1395
            },
            {
                "id":"167",
                "cityName":"北京",
                "cinemaName":"北京搜秀影城",
                "address":"崇文区崇外大街40号搜秀城9层 ",
                "telephone":"010-51671298",
                "latitude":"39.9026",
                "longitude":"116.4257",
                "trafficRoutes":"乘公交车39、43、25、116、684、685、723等路到花市路口南，乘12路到花市路口北；乘地铁5号线和2号线都可到崇文门下车，向南走，5号线可在磁器口下车。",
                "distance":1398
            },
            {
                "id":"592392",
                "cityName":"北京",
                "cinemaName":"保利国际影城天安门店",
                "address":"北京市西城区前门煤市街北京坊C1区",
                "telephone":"010-63015188",
                "latitude":"39.90289",
                "longitude":"116.4008",
                "trafficRoutes":"乘坐公车(或地铁)  地铁2号线 至 前门  站到达",
                "distance":1423
            },
            {
                "id":"262",
                "cityName":"北京",
                "cinemaName":"大观楼影城",
                "address":"北京市宣武区大栅栏街36号",
                "telephone":"010-63083312",
                "latitude":"39.902",
                "longitude":"116.4015",
                "trafficRoutes":"乘地铁或５、９、１７、２０、４４、４８、５９、６６、１１０、１２０、３３７、７０３、特７路在前门或大栅栏站下车即可。",
                "distance":1445
            },
            {
                "id":"231",
                "cityName":"北京",
                "cinemaName":"北京百丽宫影城金宝汇店",
                "address":"北京市东城区金宝街88号",
                "telephone":"010-85221977",
                "latitude":"39.92131",
                "longitude":"116.4277",
                "trafficRoutes":"110 116 685路步行约200米左右至米市大街\n108 111 684路步行约400米至灯市口",
                "distance":1658
            },
            {
                "id":"306830",
                "cityName":"北京",
                "cinemaName":"首都电影院（中华店）",
                "address":"北京市西城区天桥南大街3号楼一层、二层（天桥艺术大厦南侧）",
                "telephone":"010-56928100",
                "latitude":"39.89068",
                "longitude":"116.4054",
                "trafficRoutes":"乘坐地铁7号线至珠市口站到达；或乘坐15路、105路、7路公交车至天桥站下车",
                "distance":2375
            },
            {
                "id":"249",
                "cityName":"北京",
                "cinemaName":"北京市东城区东四工人文化宫",
                "address":"东城区隆福寺街47号",
                "telephone":"010-84014225",
                "latitude":"39.93162",
                "longitude":"116.422",
                "trafficRoutes":"乘车路线:101、103、104、106、108、109、110、111、112 、685及地铁五号线。以上公交在东四或美术馆东街下车。",
                "distance":2397
            },
            {
                "id":"199",
                "cityName":"北京",
                "cinemaName":"北京市工人俱乐部电影城",
                "address":"宣武区虎坊路7号",
                "telephone":"010-63533121",
                "latitude":"39.89405",
                "longitude":"116.3907",
                "trafficRoutes":"5、6、7、14、15、23、34、57、66、70、102、715、特5、743、等路虎坊桥下车。开车至两广路虎坊桥十字路口向南50米马路西侧。",
                "distance":2723
            }
        ]

    },
   
    {
        "id":"4",
        "city_name":"重庆",
        "city_pre":"C",
        "city_pinyin":"Chongqing",
        "city_short":"cq",
        "count":"230",
        "cinema":[
            {
                "id":"405",
                "cityName":"重庆",
                "cinemaName":"保利万和影城（大礼堂店）",
                "address":"重庆市渝中区人和街95号",
                "telephone":"023-63636616",
                "latitude":"29.5679",
                "longitude":"106.5617",
                "trafficRoutes":"112、132、145、152、181、261、262、322、338、421、609、862、810",
                "distance":560
            },
            {
                "id":"29040",
                "cityName":"重庆",
                "cinemaName":"鼎龙达国际电影城",
                "address":"鼎龙达国际电影城",
                "telephone":"023-61960987",
                "latitude":"29.57708",
                "longitude":"106.5727",
                "trafficRoutes":"631、861、641 至  刘家台    站到达",
                "distance":1652
            },
            {
                "id":"398",
                "cityName":"重庆",
                "cinemaName":"橙天嘉禾影城重庆九街店",
                "address":"重庆江江北区九街高屋东区5楼 （欧式一条街同创国际对面）",
                "telephone":"023-88191010",
                "latitude":"29.58588",
                "longitude":"106.5494",
                "trafficRoutes":"乘坐110、111、141、149、151、168、201、202、270、323、354、419、421、461、471、601、604、607、611、617、841、868等公车到达",
                "distance":1818
            },
            {
                "id":"461",
                "cityName":"重庆",
                "cinemaName":"嘉陵江影城",
                "address":"江北区建新西路金岗大厦3楼",
                "telephone":"023-67852560",
                "latitude":"29.57829",
                "longitude":"106.5383",
                "trafficRoutes":"",
                "distance":1996
            },
            {
                "id":"4046",
                "cityName":"重庆",
                "cinemaName":"ifree自由人影城（重庆江北阳光世纪店）",
                "address":"重庆市江北区观音桥阳光世纪购物中心7F层",
                "telephone":"023-88752929",
                "latitude":"29.58253",
                "longitude":"106.5413",
                "trafficRoutes":"3号轻轨至观音桥站-大融城对面",
                "distance":2000
            },
            {
                "id":"100933",
                "cityName":"重庆",
                "cinemaName":"越界影城IMAX江北嘴店",
                "address":"重庆市江北区江北城西大街财信广场 ",
                "telephone":"023-63051804",
                "latitude":"29.57884",
                "longitude":"106.5764",
                "trafficRoutes":"乘轨道六号线以及规划中的九号线，在大剧院站下车即到；乘坐119、121、151、419、421、135、111等路线公交在黄花园大桥北下车",
                "distance":2059
            },
            {
                "id":"452",
                "cityName":"重庆",
                "cinemaName":"重庆万达影城大融城店",
                "address":"重庆市江北区观音桥大融城6-7层",
                "telephone":"023-88195007",
                "latitude":"29.58138",
                "longitude":"106.539",
                "trafficRoutes":"乘坐125、108、183、181、405、465、863、461路公车到达",
                "distance":2102
            },
            {
                "id":"236086",
                "cityName":"重庆",
                "cinemaName":"大地影院--重庆渝能明日广场影城",
                "address":"重庆市江北区五江路9号附30号3-1",
                "telephone":"023-67756193",
                "latitude":"29.58698",
                "longitude":"106.5692",
                "trafficRoutes":"乘坐公车(或地铁)  107、108、110、113、119、121、135、138、141、152、163、373、604、633、638、812、813、816、817、820、831、835、861、879、0491、0800、轻轨6号线  至五里店 站到达；  ",
                "distance":2128
            },
            {
                "id":"399",
                "cityName":"重庆",
                "cinemaName":"华谊兄弟重庆影院江北金源店",
                "address":"建新北路二支路1号金源地下不夜城",
                "telephone":"",
                "latitude":"29.57874",
                "longitude":"106.5366",
                "trafficRoutes":"乘坐112\/115\/125\/127\/128\/132\/181\/183\/426\/465\/601\/603\/606\/611\/818\/863公交车，或轨道交通3号线（观音桥站）到达。",
                "distance":2167
            },
            {
                "id":"388",
                "cityName":"重庆",
                "cinemaName":"重庆UME国际影城（江北）",
                "address":"江北区北城天街（原洋河路）8号北城天街购物广场B区 5F",
                "telephone":"023-67701166",
                "latitude":"29.58427",
                "longitude":"106.5406",
                "trafficRoutes":" 影城交通十分便利，乘公交车：868、851、113、863、132、181、601、602、606、224、465、118、121、125、127、128、120、611、818 、815、711、 405、319 在渝北站、阳光城（江重百）或观音桥农贸市场下车即到。\n",
                "distance":2179
            },
            {
                "id":"408",
                "cityName":"重庆",
                "cinemaName":"重庆17.5影城解放碑店",
                "address":"重庆市渝中区临江路89号女人广场3楼",
                "telephone":"023-63006322",
                "latitude":"29.56401",
                "longitude":"106.5782",
                "trafficRoutes":"461、462、601、405、463、465.401.308.301",
                "distance":2183
            },
            {
                "id":"397",
                "cityName":"重庆",
                "cinemaName":"橙天嘉禾影城重庆日月光店",
                "address":"重庆市渝中区较场口日月光广场6F (台北纯K KTV楼上）",
                "telephone":"023-88061122",
                "latitude":"29.56043",
                "longitude":"106.5791",
                "trafficRoutes":"乘坐轻轨2号线，地铁1号线，即可到达日月光中心广场，电梯上6F",
                "distance":2430
            },
            {
                "id":"400",
                "cityName":"重庆",
                "cinemaName":"重庆万达解放碑店",
                "address":"重庆市民权路26号（英利国际）8楼",
                "telephone":"023-88195007",
                "latitude":"29.56229",
                "longitude":"106.5817",
                "trafficRoutes":"公交信息：\n公交：1、乘坐0491线、0492线、114路、152路、401路、402路、413路、424路、461路、462路、465路、466路、476路、601路、612路到七星岗下车步行211米；\n2、乘坐0491线、0492线、124路、124路、152路、299线、476路、871路到和平路【日月光广场】下车步行222米；\n3、乘坐0491线、0492线、401路、401路、424路、461路、466路、466路、476路、0491线、0492线到【重庆宾馆】下车步行251米。\n地铁：1号线 较",
                "distance":2568
            },
            {
                "id":"394",
                "cityName":"重庆",
                "cinemaName":"卢米埃重庆北滨IMAX影城",
                "address":"重庆市江北区北滨路368号金源购物广场4楼",
                "telephone":"",
                "latitude":"29.56295",
                "longitude":"106.5315",
                "trafficRoutes":"沙坪坝乘坐863至终点站，朝天门解放碑乘坐401至终点站，观音桥乘坐863、630，石马河乘坐127、615，其他地方请转车至上清寺乘坐401、615等。",
                "distance":2639
            },
            {
                "id":"3684",
                "cityName":"重庆",
                "cinemaName":"解放碑保利万和国际影城",
                "address":"重庆市渝中区较场口民权路59号瑞富奥特莱斯6楼",
                "telephone":"023-63915577",
                "latitude":"29.56052",
                "longitude":"106.5823",
                "trafficRoutes":"109路、124路、301路、302路、306路、308路、313路、315路、321路、322路、346路、351路、361路、429路、810路、871路、881路、898路、0492路公交车；地铁1号线（2号线9号出口）、地铁2号线（2号线9号出口）",
                "distance":2701
            },
            {
                "id":"392",
                "cityName":"重庆",
                "cinemaName":"重庆UME影城（解放碑）",
                "address":"重庆市渝中区较场口86-91号得意世界C座6楼",
                "telephone":"023-63719966-0",
                "latitude":"29.55938",
                "longitude":"106.5823",
                "trafficRoutes":"109路、124路、301路、302路、306路、308路、313路、315路、321路、322路、346路、351路、361路、429路、810路、871路、881路、898路、0492路公交车；地铁1号线（2号线9号出口）、地铁2号线（2号线9号出口）",
                "distance":2758
            },
            {
                "id":"8378",
                "cityName":"重庆",
                "cinemaName":"星美国际影商城重庆解放碑IMAX店",
                "address":" 重庆市渝中区八一路250号佰益广场7楼",
                "telephone":"023-61691777",
                "latitude":"29.56119",
                "longitude":"106.5834",
                "trafficRoutes":"乘坐111路、132路、181路、135路、265路、465路、301路、321路、462路、601路、862路、303路等公交线路至解放碑较场口站下车步行200米即到。\n地铁：轨道交通1、2号线较场口站出站步行300米即到。 ",
                "distance":2767
            },
            {
                "id":"383",
                "cityName":"重庆",
                "cinemaName":"万达重庆江北卜蜂莲花店",
                "address":"重庆市江北区洋河北路6号卜蜂莲花超市三楼",
                "telephone":"023-88195007",
                "latitude":"29.59245",
                "longitude":"106.5399",
                "trafficRoutes":"地铁6号线黄泥磅站：A3出口往西300米；\n地铁3号线红旗河沟站：1号出口往东500米；\n公交110路、111路、149路、151路、202路、270路、419路、461路、550路、601路、604路、607路、611路、612路、633路在紫荆商业广场站下车即可。",
                "distance":2913
            }
        ]
    },
    {
        "id":"5",
        "city_name":"广州",
        "city_pre":"G",
        "city_pinyin":"Guangzhou",
        "city_short":"gz",
        "count":"177",
        "cinema":[
            {
                "id":"488",
                "cityName":"广州",
                "cinemaName":"广东五月花电影城",
                "address":"中山五路68号五月花商业广场6—7楼",
                "telephone":"020-83330836",
                "latitude":"23.13197",
                "longitude":"113.2729",
                "trafficRoutes":"乘42.24.108.286.217.14在广卫路总站下车，步行至五月花电影城\n",
                "distance":415
            },
            {
                "id":"465",
                "cityName":"广州",
                "cinemaName":"华影青宫电影城",
                "address":"北京路312号青年文化宫二楼（晚上22点后请由青宫南门入）",
                "telephone":"020-83322688",
                "latitude":"23.13047",
                "longitude":"113.2754",
                "trafficRoutes":"公交路线：乘坐24 182 42 7 59 180 183 190 1 219 227 236 3 541 544 59 66路公交车，\n          到中山5路\/北京路站下车步行至青宫电影城。\n地铁线路：一号线公园前站所有步行至中山五路\/北京路出口,步行至青宫电影城。",
                "distance":703
            },
            {
                "id":"480",
                "cityName":"广州",
                "cinemaName":"广州星汇电影城",
                "address":"广州市越秀区西湖路63号光明广场7楼（北京路广百南门对面）",
                "telephone":"020-83304888",
                "latitude":"23.12915",
                "longitude":"113.2738",
                "trafficRoutes":"乘坐地铁1、2号线到地铁公园前站J出入口下，走约490米到光明广场(正门)。     \n乘坐公交车：高峰快线7 、高峰快线9 、7 、12 、24 、27 、42 、102 、107 、108 、182 、191 、215 、215长线 、233 、243 、264 、833中山五路下车或B8 、3 、10 、66 、101 、104 、106 、183 、541大南路下车",
                "distance":736
            },
            {
                "id":"3470",
                "cityName":"广州",
                "cinemaName":"永汉电影院",
                "address":"广州市越秀区北京路186号3楼（乘电梯上3楼）",
                "telephone":"020-83330721",
                "latitude":"23.12814",
                "longitude":"113.2679",
                "trafficRoutes":"地铁6号线北京路站A出口，直线步行约200米左右（北京路步行街入口）",
                "distance":837
            },
            {
                "id":"506",
                "cityName":"广州",
                "cinemaName":"市一宫影城",
                "address":"文明路65号广州市工人文化宫",
                "telephone":"020-83372923",
                "latitude":"23.12859",
                "longitude":"113.2778",
                "trafficRoutes":"地铁：六线 北京路 B号口 步行700米(约10分钟)到市一宫即可到达\n",
                "distance":1023
            },
            {
                "id":"545",
                "cityName":"广州",
                "cinemaName":"广州蓓蕾剧院",
                "address":"广州东风西路167号人民北路875号",
                "telephone":"020-81362572",
                "latitude":"23.13928",
                "longitude":"113.2589",
                "trafficRoutes":"蓓蕾剧院电影厅位于广州市少年宫蓓蕾剧院内（越秀区东风西路167号或人民北路875号），乘车可以直达市少年宫站（过天桥即达），或广医站（往流花湖公园南门方向步行100米即达）。\r\n到达少年宫站的具体线路有229路，38路，62路，105路，181路，204路，261路，297路，549路；12路。80路，133路，186路，215路，229路，253路，276路，283路，289路，518路。\r\n",
                "distance":1303
            },
            {
                "id":"696333",
                "cityName":"广州",
                "cinemaName":"广东工人电影院",
                "address":"越秀区南堤二马路36号广东工人文化宫3楼（RICHBABY旁）",
                "telephone":"020-83881186-8303",
                "latitude":"23.12148",
                "longitude":"113.2761",
                "trafficRoutes":"",
                "distance":1617
            },
            {
                "id":"482",
                "cityName":"广州",
                "cinemaName":"中华广场电影城",
                "address":"中山三路33号中华广场8楼",
                "telephone":"020-83739491",
                "latitude":"23.13175",
                "longitude":"113.2886",
                "trafficRoutes":"公交：1路 40路 76路 93路 183路 211路 222路 243路 517路 546路 864路  102电车 107电车 108电车\n地铁1号线：烈士陵园站（A出口）\nBRT线路:B8\n",
                "distance":1860
            },
            {
                "id":"496",
                "cityName":"广州",
                "cinemaName":"金逸广州和业店",
                "address":"广州荔湾区康王中路486和业广场四楼402",
                "telephone":"020-81236080",
                "latitude":"23.12818",
                "longitude":"113.2538",
                "trafficRoutes":"地铁1号线 陈家祠 C 出口\n旅游2线、高峰快线3、74、114、125、181、238、239、251、288、288A、297、521、552路公车到达",
                "distance":1907
            },
            {
                "id":"484",
                "cityName":"广州",
                "cinemaName":"保利国际影城广州中环店",
                "address":"广州市 越秀区 建设大马路 18号 中环广场南楼 五层",
                "telephone":"020-83030222",
                "latitude":"23.14267",
                "longitude":"113.2879",
                "trafficRoutes":"地铁路线:地铁五号线--淘金站B出口，小北站B出口（往广东电视台方向500米）\n\n公交路线：",
                "distance":1938
            },
            {
                "id":"498",
                "cityName":"广州",
                "cinemaName":"华影星美国际影城",
                "address":"广州市环市西路133号华南影都D区二楼",
                "telephone":"020-28340088",
                "latitude":"23.15271",
                "longitude":"113.2549",
                "trafficRoutes":"高峰7、高峰17、7、46、83、111、175、179、198、241、268、291A、530、538、旅游公交3线公车到达（省妇幼站）；地铁：2号线、5号线广州火车站F出口直行500米到万通服装批发市场过马路麦当劳旁。",
                "distance":2543
            },
            {
                "id":"532",
                "cityName":"广州",
                "cinemaName":"广州市第二工人文化宫",
                "address":"广州市海珠区同福东路640号",
                "telephone":"020-84412959",
                "latitude":"23.11262",
                "longitude":"113.2754",
                "trafficRoutes":"乘86.29.190.地铁2号线。至江南大道北下车,步行至广州市第二工人文化宫",
                "distance":2553
            },
            {
                "id":"509",
                "cityName":"广州",
                "cinemaName":"平安大戏院",
                "address":"广州市荔湾区十甫路125号(上下九步行街内)",
                "telephone":"020-81395329",
                "latitude":"23.11932",
                "longitude":"113.2515",
                "trafficRoutes":"",
                "distance":2650
            },
            {
                "id":"497",
                "cityName":"广州",
                "cinemaName":"广州华影万晟国际影城",
                "address":"广州市荔湾区逢源路153号3-5楼",
                "telephone":"020-81236302",
                "latitude":"23.12645",
                "longitude":"113.245",
                "trafficRoutes":"地铁：地铁一号线长寿路站D2出口，公交车总站直走右转\n公交：226、541、530、55、61、74、8、15、25、2",
                "distance":2815
            },
            {
                "id":"501",
                "cityName":"广州",
                "cinemaName":"广州UA西城都荟电影城",
                "address":"广州市荔湾区黄沙大道8号西城都荟广场三楼",
                "telephone":"",
                "latitude":"23.11723",
                "longitude":"113.2471",
                "trafficRoutes":"乘坐地铁一号线（黄沙站B出口）；25路、75路、81路、123路、528路、客轮黄沙码头-芳村码头线夜26路",
                "distance":3143
            },
            {
                "id":"495",
                "cityName":"广州",
                "cinemaName":"广州金逸西村影城",
                "address":"广州市荔湾区西增路63号自编A11号二楼",
                "telephone":"020-66288251",
                "latitude":"23.15093",
                "longitude":"113.2444",
                "trafficRoutes":"乘坐地铁五号线西村地铁站D口，约300m即到",
                "distance":3223
            }
        ]
    },
    {
        "id":"7",
        "city_name":"武汉",
        "city_pre":"W",
        "city_pinyin":"Wuhan",
        "city_short":"wh",
        "count":"124",
        "cinema":[
            {
                "id":"17765",
                "cityName":"武汉",
                "cinemaName":"武汉万达长青广场店",
                "address":"武汉市江岸区黄兴路长青广场E座4楼万达影城",
                "telephone":"027-82299567",
                "latitude":"30.59686",
                "longitude":"114.3043",
                "trafficRoutes":"公交信息：\n乘坐地铁1号线至大智路站或乘坐公交7、24、402、520、526、559、601、608、707、711、727、801路至中山大道黄兴路站即可。",
                "distance":465
            },
            {
                "id":"3773",
                "cityName":"武汉",
                "cinemaName":"武汉新天汇影城",
                "address":"武汉市江汉路步行街118号港澳中心6楼",
                "telephone":"027-82750149-117",
                "latitude":"30.58826",
                "longitude":"114.2965",
                "trafficRoutes":"2路电车、1路、7路、2路、38路、24路、45路通宵线、520、588、301、402、801、608、707、711、727、598、559、548 到江汉路下车",
                "distance":976
            },
            {
                "id":"3475",
                "cityName":"武汉",
                "cinemaName":"中南剧场1001天河影院",
                "address":"武汉市江岸区京汉大道1001号球场横街",
                "telephone":"027-82837366",
                "latitude":"30.60205",
                "longitude":"114.3054",
                "trafficRoutes":"公交电车3路、508路、712路、605路到球场站下车步行3分钟；\n轻轨1号线到三阳路站下步行5分钟",
                "distance":1034
            },
            {
                "id":"792232",
                "cityName":"武汉",
                "cinemaName":"橙天嘉禾影城武汉和黄店",
                "address":"武汉市江汉区江汉路187号M+购物中心6楼成天嘉禾影城",
                "telephone":"027-59300093",
                "latitude":"30.58912",
                "longitude":"114.2941",
                "trafficRoutes":"",
                "distance":1142
            },
            {
                "id":"654",
                "cityName":"武汉",
                "cinemaName":"武汉万达江汉路悦荟广场店 ",
                "address":"武汉市江汉区交通路1号万达商业广场C座二层",
                "telephone":"027-82853677",
                "latitude":"30.58395",
                "longitude":"114.2987",
                "trafficRoutes":"2路电车、1路、7路、2路、38路、24路、45路通宵线、520、588、301、402、801、608、707、711、727、598、559、548 到江汉路下车 \n乘公交：533、601、581 到民生路下车 \n轻轨：1号线 到江汉路下车",
                "distance":1164
            },
            {
                "id":"661",
                "cityName":"武汉",
                "cinemaName":"横店电影城（武汉王府井店）",
                "address":"湖北省武汉市中山大道818号7楼(乘新佳丽时尚广场、王府井百货、平安大厦观光电梯直达）",
                "telephone":"027-51306915",
                "latitude":"30.58474",
                "longitude":"114.2972",
                "trafficRoutes":"武汉轨道交通1号线 2号线 1路 电车2路 7路 24路通宵线 24路 38路 45路 301路 402路 520路 533路 548路 553路 559路 581路 588路 598路 608路 622路 707路 711路 727路 801路至江汉路站下车即到",
                "distance":1179
            },
            {
                "id":"673",
                "cityName":"武汉",
                "cinemaName":"橙天嘉禾影城武汉亚瑟店",
                "address":"武汉市汉口江汉区江汉一路紫晶城三层36-59号",
                "telephone":"027-82308818",
                "latitude":"30.58616",
                "longitude":"114.2955",
                "trafficRoutes":"24路、42路、电1、电7、524路、558路、571路、585路、598路、704路、705路、707路、726路、402路、411路、24路、648路、电4等，在中山大道江汉路站下车步行至江汉一路\n",
                "distance":1188
            },
            {
                "id":"680",
                "cityName":"武汉",
                "cinemaName":"武汉UA新民众乐园电影城",
                "address":"武汉市汉口中山大道704号新民众乐园4-5楼",
                "telephone":"020-85111168",
                "latitude":"30.58195",
                "longitude":"114.2939",
                "trafficRoutes":"1路 电车2路 7路 电车7路 24路通宵线 24路 38路 45路 402路 520路 533路 548路 559路 581路 588路 598路 601路 608路 707路 711路 727路 801路 \n",
                "distance":1621
            },
            {
                "id":"115810",
                "cityName":"武汉",
                "cinemaName":"艾米紫星影城",
                "address":"武汉市江岸区台北路153号（原武汉影城三楼）",
                "telephone":"027-85683333",
                "latitude":"30.60273",
                "longitude":"114.2865",
                "trafficRoutes":"60路、290路、522路至台北路鄂城墩站到达",
                "distance":2111
            },
            {
                "id":"482933",
                "cityName":"武汉",
                "cinemaName":"武汉百丽宫影城壹方店",
                "address":"武汉市江岸区中山大道1515号壹方购物中心4-8层",
                "telephone":"027-82902016",
                "latitude":"30.61291",
                "longitude":"114.3156",
                "trafficRoutes":"乘坐地铁1号线至黄浦路站或乘坐公交 30、313、402、520、526、534、588、601、793至中山大道长江二桥站到达",
                "distance":2453
            },
            {
                "id":"650",
                "cityName":"武汉",
                "cinemaName":"CGV星星影城（武汉天地店）",
                "address":"武汉市江岸区芦沟桥路28号 武汉天地11号楼",
                "telephone":"027-82716621",
                "latitude":"30.61316",
                "longitude":"114.3167",
                "trafficRoutes":"公交：公交线路30 60 212 402 516 520 526 548 588 601 707 721 727永清站下\n轻轨：“黄浦路”站下车\n",
                "distance":2523
            },
            {
                "id":"32411",
                "cityName":"武汉",
                "cinemaName":"星美国际影城武汉福星惠誉店",
                "address":"湖北省武汉市武昌区友谊大道305号福星惠誉漫时区3栋3楼",
                "telephone":"027-88773777",
                "latitude":"30.58109",
                "longitude":"114.3314",
                "trafficRoutes":"108路, 215路, 537路, 543路, 554路, 573路, 777路, 802路, 811路友谊大道航海学院-公交车站",
                "distance":2824
            }
        ]
    },
    {
        "id":"8",
        "city_name":"东莞",
        "city_pre":"D",
        "city_pinyin":"Dongguan",
        "city_short":"dg",
        "count":"131",
        "cinema":[
            {
                "id":"693",
                "cityName":"东莞",
                "cinemaName":"东莞典范文化电影城",
                "address":"东莞市南城区鸿福路92号中环财富广场4楼",
                "telephone":"0769-22334000",
                "latitude":"23.02142",
                "longitude":"113.7519",
                "trafficRoutes":"8路 14路 24路 26路 31路 47路 X5路 X7路 X11路 X13路 电信局下车 步行大约300米到苏宁电器上4楼即可\n\n",
                "distance":84
            },
            {
                "id":"695",
                "cityName":"东莞",
                "cinemaName":"中影时代电影城",
                "address":"东莞市南城区鸿福路88号莱蒙商业中心3楼",
                "telephone":"0769-21685555",
                "latitude":"23.02129",
                "longitude":"113.751",
                "trafficRoutes":"X5、X7、8、X11、X13、14、24、26、31、47、59电信局下；C1、L1、、2、L4、6、X7、8、10、X11、20、39、48、59鸿福路口下（沃尔玛旁）",
                "distance":106
            },
            {
                "id":"688",
                "cityName":"东莞",
                "cinemaName":"橙天嘉禾影城东莞第一国际店",
                "address":"东莞市南城区鸿福路200号第一国际汇一城购物中心B座3楼",
                "telephone":"0769-28631166-815",
                "latitude":"23.01581",
                "longitude":"113.7625",
                "trafficRoutes":"乘坐19、27、41、X7、X9公车到达   嘉禾第一国际影城，索尼4K放映机搭配全金属银幕\n嘉禾影院影迷群：135197330 （已满）\n                请加此QQ：160185683\n新浪微博：@橙天嘉禾东莞第一国际",
                "distance":1224
            },
            {
                "id":"721",
                "cityName":"东莞",
                "cinemaName":"大地数字影院-东莞南城中天中央广场",
                "address":"东莞市南城区宏图路21号中天中央广场四楼(石竹新花园斜对面沃尔玛广场4楼）",
                "telephone":"0769-28639731",
                "latitude":"23.00512",
                "longitude":"113.7451",
                "trafficRoutes":"K4、15、17、C3、18、39、城市小巴X8等公车至石竹新花园站，然后走至斜对面的沃尔玛四楼即可",
                "distance":1862
            },
            {
                "id":"371256",
                "cityName":"东莞",
                "cinemaName":"东莞万达影城莞城旗峰店",
                "address":"东莞市莞城区万科城市广场3楼",
                "telephone":"0769-22668128",
                "latitude":"23.03135",
                "longitude":"113.7707",
                "trafficRoutes":"乘坐地铁2号线至旗峰公园站 A \/ B出口 到达",
                "distance":2273
            },
            {
                "id":"689",
                "cityName":"东莞",
                "cinemaName":"金逸东莞东城店",
                "address":"东城区东泰花园泰和路友谊综合市场3楼（东泰嘉荣购物广场3楼）",
                "telephone":"0769-23368030",
                "latitude":"23.00723",
                "longitude":"113.7715",
                "trafficRoutes":"X1路、LG1路、9路、18路、46路、52路、54路",
                "distance":2514
            },
            {
                "id":"690",
                "cityName":"东莞",
                "cinemaName":"东莞光大电影城（南城店）",
                "address":"东莞市南城区宏伟路景湖时代城，西平家乐福、彩怡百货三楼",
                "telephone":"0769-26981889-602",
                "latitude":"23.00132",
                "longitude":"113.765",
                "trafficRoutes":"10、51、54、X1、X2、X9、LG1等7条公交线路",
                "distance":2545
            },
            {
                "id":"734",
                "cityName":"东莞",
                "cinemaName":"东莞市电影院",
                "address":"东莞市向阳路2号市文化广场内",
                "telephone":"0769-22218859",
                "latitude":"23.046",
                "longitude":"113.7575",
                "trafficRoutes":"乘46，28，7，20，48，15路，到文化广场下车，步行至东莞电影院\n",
                "distance":2879
            },
            {
                "id":"3690",
                "cityName":"东莞",
                "cinemaName":"东莞星汇电影城",
                "address":"东莞市莞城区向阳路2号文化周末内",
                "telephone":"0769-23025555",
                "latitude":"23.04642",
                "longitude":"113.7572",
                "trafficRoutes":"城巴1，8，15，21，30，LG1路车，到向阳路公交站台，下车即到。QQ群：293901576  团体\/业务\/包场\/合作，电话：135 3865 9298（谢生）",
                "distance":2919
            },
            {
                "id":"700",
                "cityName":"东莞",
                "cinemaName":"东莞万达华南MALL店",
                "address":"广东东莞市万江区万道路华南MALL ，D区三楼",
                "telephone":"0769-22430206",
                "latitude":"23.03976",
                "longitude":"113.7319",
                "trafficRoutes":"乘座28、38、53、K5、L2、L3、LG1、X6、X7、X20、58A、L5A、L5B路，到 华南MALL站下车，穿行主广场可到达万达国际电影城。东莞万达会员管理咨询，倾听您的心声，东莞万达会员俱乐部QQ群88321048，验证信息：请输入（持卡姓名、会员卡号）进行验正。将为您提供全方位的会员咨询信息。影迷可以加入IMAX①群：60839027  IMAX②群：61700260  IMAX③群：91099864 IMAX④群：30722690  IMAX⑤群：51891883  IMAX⑦群：34476",
                "distance":2943
            },
            {
                "id":"529205",
                "cityName":"东莞",
                "cinemaName":"东莞中影南方国际影城",
                "address":"东莞市莞城区东纵路2号地王广场3楼",
                "telephone":"0769-28683939",
                "latitude":"23.04523",
                "longitude":"113.7714",
                "trafficRoutes":"",
                "distance":3393
            }
        ]
    },
    {
        "id":"9",
        "city_name":"天津",
        "city_pre":"T",
        "city_pinyin":"Tianjin",
        "city_short":"tj",
        "count":"95",
        "cinema":[
            {
                "id":"778",
                "cityName":"天津",
                "cinemaName":"天影滨湖国际影城",
                "address":"天津市河西区体院北环湖中路6号",
                "telephone":"022-23356672",
                "latitude":"39.09029",
                "longitude":"117.1921",
                "trafficRoutes":"乘坐951、628、675、857、686、963、952、901、878、879路公交车在华夏未来站下车。",
                "distance":853
            },
            {
                "id":"739",
                "cityName":"天津",
                "cinemaName":"天津农垦博纳国际影城IMAX ",
                "address":"天津南开区宾水西道天津体育中心B馆津奥广场二层",
                "telephone":"022-23477816",
                "latitude":"39.08323",
                "longitude":"117.1867",
                "trafficRoutes":"608 668 685 ",
                "distance":1112
            },
            {
                "id":"790",
                "cityName":"天津",
                "cinemaName":"红楼酒店电影厅",
                "address":"天津市南开区卫津南路38号（天塔斜对面）",
                "telephone":"022-23950018-27",
                "latitude":"39.09594",
                "longitude":"117.1861",
                "trafficRoutes":"",
                "distance":1664
            },
            {
                "id":"769",
                "cityName":"天津",
                "cinemaName":"天津耀莱成龙国际影城（友谊路店）",
                "address":"天津市河西区黑牛城道125号新业广场三楼",
                "telephone":"022-88312828",
                "latitude":"39.08365",
                "longitude":"117.2206",
                "trafficRoutes":"乘坐20、628、632、655、快速1路公交线路，文玥里站下车即可到达。",
                "distance":1843
            },
            {
                "id":"750",
                "cityName":"天津",
                "cinemaName":"金逸天津奥城店",
                "address":"天津市南开区宾水西道奥城商业广场8号3层",
                "telephone":"022-23855062",
                "latitude":"39.08174",
                "longitude":"117.1784",
                "trafficRoutes":"乘668、878、879、901、685、963路至时代奥城站下车步行至金逸影城，8路、快速1路至体育中心下车。\n",
                "distance":1848
            },
            {
                "id":"753",
                "cityName":"天津",
                "cinemaName":"橙天嘉禾影城天津银河店",
                "address":"天津市河西区银河国际购物中心5层日辉厅（广东路与乐园道交口）",
                "telephone":"022-83889188",
                "latitude":"39.09682",
                "longitude":"117.2222",
                "trafficRoutes":"4,675,912,机场专线5路-文化中心站；48,619,682,857,866-越秀路站；47,662,668,800,835,868-文玥北里站；511,641-前进道站",
                "distance":2367
            },
            {
                "id":"746",
                "cityName":"天津",
                "cinemaName":"银兴国际影城（天津店）",
                "address":"天津市河西区乐园道彩悦城4楼（刘老根大舞台旁）",
                "telephone":"022-83885183",
                "latitude":"39.09596",
                "longitude":"117.2236",
                "trafficRoutes":"866路公交车在越秀路站下车；另外也可乘606路、632路、655路、859路公交在天津乐园站下车",
                "distance":2420
            },
            {
                "id":"751",
                "cityName":"天津",
                "cinemaName":"金逸天津西岸店",
                "address":"河西区琼州道103号",
                "telephone":"022-58182222",
                "latitude":"39.10967",
                "longitude":"117.2261",
                "trafficRoutes":"608 866 858 678 803 865 511到人民公园下车即可",
                "distance":3582
            }
        ]
    },
    {
        "id":"10",
        "city_name":"杭州",
        "city_pre":"H",
        "city_pinyin":"Hangzhou",
        "city_short":"hz",
        "count":"158",
        "cinema":[
            {
                "id":"801",
                "cityName":"杭州",
                "cinemaName":"杭州光影影院",
                "address":"杭州市湖墅南路103号百大花园裙楼三楼、四楼（湖墅南路与文晖路交叉口、星都宾馆对面）",
                "telephone":"0571-88092209",
                "latitude":"30.28417",
                "longitude":"120.161",
                "trafficRoutes":"半道红：k151 k76 k12 k801 k6 k101 k516 k251(夜间）k204(夜间）k218(夜间）\n大塘新村：k45 k316 k74 k45 k6 k179 k218(夜间）k203(夜间）\n湖墅路沈塘桥：k333 k151 k101 k76 k12 k516 k348 k204(夜间）\n密度桥路口：k95 k517 k10 k186 k199 k807 k290 k275 k156 k57 k45 k36 k13 k1 k58  B支1  Y8 k211(夜间)\n沈塘桥：k192 k",
                "distance":1246
            },
            {
                "id":"813",
                "cityName":"杭州",
                "cinemaName":"浙江奥斯卡电影大世界",
                "address":"杭州市下城区龙游路38号",
                "telephone":"0571-87012458",
                "latitude":"30.26787",
                "longitude":"120.1667",
                "trafficRoutes":"地铁一号线风起路站下车，走B出口400米左右即到\n乘公交1,10,12,25,26,46,78,130,199路至凤起路站，乘46,102,206路至长寿桥站，乘Y1,Y3,6\/K6,7\/K7,16\/K16,27\/K27,78,118,850路至少年宫站，乘Y2,Y9,7\/K7,K16,27\/K27,118路至六公园站，\n步行至奥斯卡电影大世界。",
                "distance":1312
            },
            {
                "id":"3808",
                "cityName":"杭州",
                "cinemaName":"星美国际影商城（杭州黄龙店）",
                "address":"杭州市西湖区黄龙路1号黄龙体育中心东门(原黄龙影城)",
                "telephone":"0571-87068373-803",
                "latitude":"30.27231",
                "longitude":"120.1414",
                "trafficRoutes":"21路、23路、282路，假日13线至黄龙体育中心站；\n",
                "distance":1340
            },
            {
                "id":"780308",
                "cityName":"杭州",
                "cinemaName":"杭州国大纷腾电影生活馆影城",
                "address":"杭州市下城区延安路609号国大城市广场9F",
                "telephone":"0571-86676929",
                "latitude":"30.27483",
                "longitude":"120.1691",
                "trafficRoutes":"乘坐公车(或地铁)         延安新村   至       武林广场         站到达",
                "distance":1342
            },
            {
                "id":"537023",
                "cityName":"杭州",
                "cinemaName":"杭州百美汇影城",
                "address":"浙江省杭州市下城区延安路385号嘉里中心4楼",
                "telephone":"0571-81181775-1",
                "latitude":"30.2681",
                "longitude":"120.17",
                "trafficRoutes":"乘坐公车(或地铁)至 站到达；地铁1号线凤起路站B出口，往庆春路方向步行300米  ",
                "distance":1578
            },
            {
                "id":"808",
                "cityName":"杭州",
                "cinemaName":"新远国际影城",
                "address":"西湖文化广场8号（C区）",
                "telephone":"0571-85001088",
                "latitude":"30.28263",
                "longitude":"120.1699",
                "trafficRoutes":"K67\/K78\/K2\/K72\/k106\/K30\/K38(中北桥站) \nK56\/K24\/K26(杭州大厦站)",
                "distance":1701
            },
            {
                "id":"831",
                "cityName":"杭州",
                "cinemaName":"浙江胜利剧院",
                "address":"浙江省杭州市上城区延安路279号",
                "telephone":"0571-87080142",
                "latitude":"30.26213",
                "longitude":"120.1703",
                "trafficRoutes":"k55 K290 K151 K152 801  105  11等等",
                "distance":1978
            },
            {
                "id":"803",
                "cityName":"杭州",
                "cinemaName":"新华影都",
                "address":"庆春路169号娃哈哈美食城三楼",
                "telephone":"0571-87049310",
                "latitude":"30.26365",
                "longitude":"120.1756",
                "trafficRoutes":"59路、18路、45路、186路",
                "distance":2287
            },
            {
                "id":"110262",
                "cityName":"杭州",
                "cinemaName":"海上明珠国际影城西湖店",
                "address":"浙江省杭州市上城区延安南路98号西湖银泰城5楼",
                "telephone":"0571-87002038",
                "latitude":"30.25027",
                "longitude":"120.1713",
                "trafficRoutes":"乘坐公车(或地铁)地铁一号线至定安路站到达 非银泰营业时间，请至红门局路乘坐直达电梯",
                "distance":3080
            },
            {
                "id":"807",
                "cityName":"杭州",
                "cinemaName":"翠苑电影大世界",
                "address":"杭州市文一路298号",
                "telephone":"0571-88922960",
                "latitude":"30.29458",
                "longitude":"120.129",
                "trafficRoutes":"乘10路、19路、B2路、B4路、70路、75路、79路、43路、804路到宋江村下车。",
                "distance":3389
            },
            {
                "id":"797",
                "cityName":"杭州",
                "cinemaName":"金逸国际影城南宋御街店",
                "address":"杭州市上城区中山中路168号",
                "telephone":"0571-87829390",
                "latitude":"30.24995",
                "longitude":"120.1773",
                "trafficRoutes":"中河路口站：40\/K40、K7、900、Y2、992路\n耀江广厦站：K7、34\/K34、40\/K40、108、113、308\/K308、900、Y7、992路\n涌金立交站：13\/K30、71\/k71、87\/k87、113、801\/K801、834路\n惠民路口站：13\/K13、87\/K87、113路\n高银街东口站：8\/K8、60\/K60、119、195、208、216路\n惠民路站：8\/K8、34\/K34 、59\/K59、108、119、208、216路\n定安路站：地铁一号线",
                "distance":3435
            },
            {
                "id":"543178",
                "cityName":"杭州",
                "cinemaName":"德信影城杭州和平广场店",
                "address":"杭州市下城区绍兴路158号",
                "telephone":"0571-85287566",
                "latitude":"30.29651",
                "longitude":"120.1817",
                "trafficRoutes":"乘坐公车(或地铁)和平广场站至打铁关站 站到达",
                "distance":3562
            }
        ]
    },{
        "id":"16",
        "city_name":"西安",
        "city_pre":"X",
        "city_pinyin":"Xian",
        "city_short":"xa",
        "count":"108",
        "cinema":[
            {
                "id":"803198",
                "cityName":"西安",
                "cinemaName":"中影时代国际影城（旭弘店）",
                "address":"西安市凤城六路与明光路十字西北角旭景兴园（东门）旭弘广场五楼",
                "telephone":"029-86680198",
                "latitude":"34.34066",
                "longitude":"108.934",
                "trafficRoutes":"乘坐公车(或地铁)214路.264路.209路.245路.234路.901路至凤城六路七路口站到达",
                "distance":539
            },
            {
                "id":"386711",
                "cityName":"西安",
                "cinemaName":"西安喜满客影城",
                "address":"凤城七路与文景路十字西北角汉神购物广场5楼",
                "telephone":"029-62614555",
                "latitude":"34.34664",
                "longitude":"108.9433",
                "trafficRoutes":"乘坐公车108、117、234、264、265、266、328、714、901\/地铁2号线至凤城七路\/行政中心站到达",
                "distance":679
            },
            {
                "id":"342395",
                "cityName":"西安",
                "cinemaName":"奥斯卡熙地港国际影城",
                "address":"西安市未央区未央大道与凤城七路交汇处熙地港购物中心6F",
                "telephone":"",
                "latitude":"34.34449",
                "longitude":"108.9526",
                "trafficRoutes":"乘坐地铁二号线至行政中心站B3出口站到达",
                "distance":1229
            },
            {
                "id":"1048",
                "cityName":"西安",
                "cinemaName":"西安奥斯卡赛高国际影城",
                "address":"西安市经开区凤城五路与未央大道十字西南角赛高街区四层",
                "telephone":"",
                "latitude":"34.33482",
                "longitude":"108.9533",
                "trafficRoutes":"618.228.238.711.509.609.600.207.409.230.等",
                "distance":1432
            },
            {
                "id":"533778",
                "cityName":"西安",
                "cinemaName":"橙天嘉禾西安青东店",
                "address":"陕西省西安市经济技术开发区凤城九路北侧青门口花园小区5号楼2-4层（近天汉中心售楼部）",
                "telephone":"029-86689828",
                "latitude":"34.35349",
                "longitude":"108.9269",
                "trafficRoutes":"165路\/235路\/717路\/900路\/901路 至青东村站到达",
                "distance":1806
            },
            {
                "id":"735013",
                "cityName":"西安",
                "cinemaName":"派啦萌巨幕影城",
                "address":"凤城八路与渭滨路十字西北角卜蜂中心4F",
                "telephone":"029-89329666",
                "latitude":"34.34737",
                "longitude":"108.9604",
                "trafficRoutes":"乘坐公车(或地铁)  17路 256路 328路 517路 618路 711路 719路 727路至徐家湾站到达",
                "distance":2010
            }
        ]
    },{
        "id":"19",
        "city_name":"大连",
        "city_pre":"D",
        "city_pinyin":"Dalian",
        "city_short":"dl",
        "count":"55",
        "cinema":[
            {
                "id":"347348",
                "cityName":"大连",
                "cinemaName":"大连百丽宫影城恒隆广场店",
                "address":"西岗区五四路66号恒隆广场四层",
                "telephone":"0411-39058800",
                "latitude":"38.91333",
                "longitude":"121.6149",
                "trafficRoutes":"乘坐地铁二号线人民广场站A口 ，公交车15路 16路 奥利匹克广场站到达",
                "distance":41
            },
            {
                "id":"1151",
                "cityName":"大连",
                "cinemaName":"大连万达影城华府悦荟广场店",
                "address":"大连市西岗区中山路281号万达华府A座三层",
                "telephone":"0411-83669988-8009",
                "latitude":"38.91756",
                "longitude":"121.6111",
                "trafficRoutes":"16、15、533路奥林匹克广场下车；19、303路珠江路下车；11、40、541、522、527、532、702路长春路下车；23、406路体育场下车；31、101、534、708路长生街下车。\n",
                "distance":536
            },
            {
                "id":"1149",
                "cityName":"大连",
                "cinemaName":"大连华臣红星电影院",
                "address":"大连市沙河口区五四广场 成义街6号",
                "telephone":"0411-84641068",
                "latitude":"38.91924",
                "longitude":"121.5956",
                "trafficRoutes":"乘708、522、101、534路下行、31路区间车下行、10路下行、705路下行至科技谷下车。",
                "distance":1771
            },
            {
                "id":"1131",
                "cityName":"大连",
                "cinemaName":"中影华臣影城（西安路店）",
                "address":"沙河口区西安路123号天兴罗斯福国际中心4F",
                "telephone":"0411-83899114",
                "latitude":"38.92028",
                "longitude":"121.5929",
                "trafficRoutes":"乘201、202、6、8、24、101、17、708、503、31、705路公交车至西安路下车。\n",
                "distance":2031
            },
            {
                "id":"1138",
                "cityName":"大连",
                "cinemaName":"金逸大连福佳店",
                "address":"大连市沙河口区西安路99-D福佳新天地5楼",
                "telephone":"0411-88891200",
                "latitude":"38.92306",
                "longitude":"121.5944",
                "trafficRoutes":"乘坐201、202、503、6、705、10、505路公车到达",
                "distance":2049
            },
            {
                "id":"1140",
                "cityName":"大连",
                "cinemaName":"万达影城和平店（原奥纳和平店）",
                "address":"辽宁省大连市沙河口区高尔基路707号4层3号、705号4层2号",
                "telephone":"0411-82193588-208",
                "latitude":"38.90259",
                "longitude":"121.5938",
                "trafficRoutes":"公交信息：\n地铁1号线国贸站  出口往东300米；\n地铁1号线大望路站D出口往西100米；\n公交1路、11路、57路、101路、112路、118路、364路、488路、502路、639路、640路、671路、718路、810路、846路、855路、930路、976路在郎家园站下车即可。",
                "distance":2195
            },
            {
                "id":"45208",
                "cityName":"大连",
                "cinemaName":"CGV星聚汇影城（大连柏威年店）",
                "address":"大连市中山区中山路129-3号",
                "telephone":"0411-39612111",
                "latitude":"38.92214",
                "longitude":"121.6383",
                "trafficRoutes":"乘坐公交15路、16路及地铁2号线至青泥洼桥站到达",
                "distance":2247
            },
            {
                "id":"1157",
                "cityName":"大连",
                "cinemaName":"大地数字影院-大连香榭里店",
                "address":"大连市中山区长江路333号香榭里广场负一层",
                "telephone":"0411-39738588",
                "latitude":"38.92556",
                "longitude":"121.6362",
                "trafficRoutes":"公交1路、411路、521路、525路、101路、39路、408路、31路、531路、15路、16路、23路、708路、534路、710路、702路等在火车站或青泥洼桥站下车，步行1分钟即可到达。\n",
                "distance":2280
            },
            {
                "id":"1137",
                "cityName":"大连",
                "cinemaName":"大连大商影城新玛特店",
                "address":"大连中山区青三街1号新玛特购物休闲广场6F",
                "telephone":"0411-83880648",
                "latitude":"38.92188",
                "longitude":"121.6398",
                "trafficRoutes":"1、2、5、15、16、22、23、24、801、901、701、702、703、707、708、710、712、405、406、411、512、533、432、505、506、611、408、409等公交线路",
                "distance":2354
            },
            {
                "id":"257691",
                "cityName":"大连",
                "cinemaName":"SFC上影影城(大连百年港湾店)",
                "address":"辽宁省大连市西岗区香炉礁百年港湾奥特莱斯A2区2楼",
                "telephone":"0411-39036720",
                "latitude":"38.9352",
                "longitude":"121.6139",
                "trafficRoutes":"1路、17路、18路、19路、41路、43路、407路、408路、409路、410路、414路、503路、515路、517路、602路、707路、4路、21路、34路、705路、大连火车站-开发区、大连湾-解放路、大连湾-青泥洼，祥和花园-胜利桥北。",
                "distance":2397
            }
        ]
    },
    {
        "id":"20",
        "city_name":"青岛",
        "city_pre":"Q",
        "city_pinyin":"QingDao",
        "city_short":"qd",
        "count":"63",
        "cinema":[
            {
                "id":"82075",
                "cityName":"青岛",
                "cinemaName":"CGV星聚汇影城（青岛万象城店）",
                "address":"青岛市市南区山东路6号万象城5楼",
                "telephone":"0532-55575656",
                "latitude":"36.07307",
                "longitude":"120.3845",
                "trafficRoutes":"",
                "distance":774
            },
            {
                "id":"1162",
                "cityName":"青岛",
                "cinemaName":"青岛金逸CBD店 ",
                "address":"青岛市市南区南京路8号府都大厦4-6楼",
                "telephone":"0532-80972069",
                "latitude":"36.07302",
                "longitude":"120.396",
                "trafficRoutes":"12、26、31、33、104、125、231、228、304、319、316、321、501路浮山所站",
                "distance":1394
            },
            {
                "id":"1168",
                "cityName":"青岛",
                "cinemaName":"青岛百老汇影城百丽广场店",
                "address":"山东省青岛市澳门路88号百丽广场3层",
                "telephone":"0532-66061155",
                "latitude":"36.06578",
                "longitude":"120.4016",
                "trafficRoutes":"316，319，31，33，224，210，216，224，317，601，208，216，33，104，125，304 ，363等公车到达。 \n团体票销售电话：0532-66061155-8005\n",
                "distance":1675
            },
            {
                "id":"1160",
                "cityName":"青岛",
                "cinemaName":"青岛华臣影城",
                "address":"市南区香港中路69号麦凯乐八楼",
                "telephone":"0532-66700677",
                "latitude":"36.07137",
                "longitude":"120.4095",
                "trafficRoutes":"乘33、222、232、309、314、316、363、501等公交车至麦凯乐商场下车。\n",
                "distance":2453
            },
            {
                "id":"1177",
                "cityName":"青岛",
                "cinemaName":"星博达美影城",
                "address":"青岛市台东三路步行街68号（穿戴大世界与千川百货之间路口处）",
                "telephone":"0532-83616688",
                "latitude":"36.08818",
                "longitude":"120.3636",
                "trafficRoutes":"",
                "distance":3003
            },
            {
                "id":"1163",
                "cityName":"青岛",
                "cinemaName":"青岛完美世界影城台东店（原17.5影城）",
                "address":"青岛市市北区台东一路37号国美电器5楼",
                "telephone":"0532-83080903",
                "latitude":"36.08757",
                "longitude":"120.3613",
                "trafficRoutes":"1、2、3、4、11、15、19、28、30、36、104、110、119、125、205、217、226、229、232、301、302、306、307、320、367、372、",
                "distance":3075
            },
            {
                "id":"1166",
                "cityName":"青岛",
                "cinemaName":"青岛万达影城台东路万达广场店",
                "address":"青岛市市北区台东三路63号万达广场四层",
                "telephone":"0532-83625656-8018",
                "latitude":"36.08876",
                "longitude":"120.362",
                "trafficRoutes":"十九中车站：2、11、25、32、104、125、206、229、212、218、219、220、225、226、227；\n威海路车站：219、229、302、306、367、369；\n台东邮电局车站：2、218、222、232、301、302；\n延安二路车站：1、15、25、205、212、217、219、220、225、302、306、307、308、367、368。",
                "distance":3140
            }
        ]
    },
    {
        "id":"21",
        "city_name":"苏州",
        "city_pre":"S",
        "city_pinyin":"Suzhou",
        "city_short":"sz",
        "count":"81",
        "cinema":[
            {
                "id":"487592",
                "cityName":"苏州",
                "cinemaName":"苏州耀莱成龙国际影城（金门路店）",
                "address":"苏州市金门路1072号金门国际商业广场5楼",
                "telephone":"0512-69166169",
                "latitude":"31.31604",
                "longitude":"120.5857",
                "trafficRoutes":"乘坐公车(或地铁)   一号线     到达",
                "distance":1984
            },
            {
                "id":"1201",
                "cityName":"苏州",
                "cinemaName":"橙天嘉禾影城苏州来客茂店",
                "address":"苏州金阊区桐泾北路218号来客茂时尚生活广场4F",
                "telephone":"0512-86860773",
                "latitude":"31.31875",
                "longitude":"120.5958",
                "trafficRoutes":"311路、400路上行、游5路、317路、949路、441路、34路，到西园东站下车 406路 到西园站下车",
                "distance":2568
            },
            {
                "id":"1196",
                "cityName":"苏州",
                "cinemaName":"金逸苏州石路永捷店",
                "address":"苏州市姑苏区广济南路19号西城永捷生活广场6楼",
                "telephone":"0512-65703050",
                "latitude":"31.31201",
                "longitude":"120.6071",
                "trafficRoutes":"游1、7路、88路、204路、34路、",
                "distance":2736
            },
            {
                "id":"1190",
                "cityName":"苏州",
                "cinemaName":"幸福蓝海国际影城（石路IMAX店）",
                "address":"苏州市广济南路219号新苏天地9楼",
                "telephone":"0512-65899658",
                "latitude":"31.31583",
                "longitude":"120.6067",
                "trafficRoutes":"",
                "distance":2964
            },
            {
                "id":"1197",
                "cityName":"苏州",
                "cinemaName":"金逸苏州IMAX亿象城店",
                "address":"苏州市沧浪区友新路1188号亿象城5号楼3层",
                "telephone":"0512-67878101",
                "latitude":"31.2796",
                "longitude":"120.6097",
                "trafficRoutes":"福星小区东下: 315路 47路 88路 923路 乘坐325\/47\/54\/88\/900\/923到友联二村下车即是",
                "distance":3273
            }
        ]
    },{
        "id":"46",
        "city_name":"长春",
        "city_pre":"C",
        "city_pinyin":"Changchun",
        "city_short":"cc",
        "count":"48",
        "cinema":[
            {
                "id":"1696",
                "cityName":"长春",
                "cinemaName":"长春艾米1895电影街",
                "address":"长春市朝阳区西安大路8号新世纪鸿源大厦4层",
                "telephone":"0431-81216666",
                "latitude":"43.89444",
                "longitude":"125.3256",
                "trafficRoutes":"80路、362路、62路、363路、364路公交到达",
                "distance":846
            },
            {
                "id":"1691",
                "cityName":"长春",
                "cinemaName":"长春市工人文化宫",
                "address":"长春市人民大街2302号",
                "telephone":"0431-88914647",
                "latitude":"43.89404",
                "longitude":"125.3325",
                "trafficRoutes":"362 62  亚泰富苑站、文化街站 14  19  22  64   17  22  13 3 人民广场站  5  6  80  226  306   230  重庆路站 ",
                "distance":1011
            },
            {
                "id":"1684",
                "cityName":"长春",
                "cinemaName":"长春重庆路万达广场店",
                "address":"长春市重庆路1388号长春万达商业广场4层",
                "telephone":"0431-88988922",
                "latitude":"43.89587",
                "longitude":"125.3268",
                "trafficRoutes":"乘公交255、232、52、25、62、362路在红旗街站下车即可",
                "distance":1016
            },
            {
                "id":"1694",
                "cityName":"长春",
                "cinemaName":"长春雷纳影城民生店",
                "address":"长春市朝阳区崇智路58号民生购物广场7楼",
                "telephone":"0431-81817266",
                "latitude":"43.89573",
                "longitude":"125.3284",
                "trafficRoutes":"12路、160路、260路公交到达",
                "distance":1029
            },
            {
                "id":"1687",
                "cityName":"长春",
                "cinemaName":"长春豪威尔电影城",
                "address":"长春市南关区重庆路与近埠街交汇小魔鱼楼上四楼",
                "telephone":"0431-81080000",
                "latitude":"43.89688",
                "longitude":"125.3367",
                "trafficRoutes":"362、62、271、361、460、119、13路公车到达",
                "distance":1469
            },
            {
                "id":"22520",
                "cityName":"长春",
                "cinemaName":"长春宝地影城",
                "address":"长春市朝阳区同志街2256号科贸大厦七层",
                "telephone":"0431-85671058",
                "latitude":"43.87294",
                "longitude":"125.3244",
                "trafficRoutes":"62、362、363、277、238、282、25至桂林路站",
                "distance":1550
            },
            {
                "id":"713910",
                "cityName":"长春",
                "cinemaName":"桂林路电影院",
                "address":"长春市同志街与桂林路交汇新燕莎三楼",
                "telephone":"0431-87661777",
                "latitude":"43.87253",
                "longitude":"125.3248",
                "trafficRoutes":"乘坐公车(或地铁)站62，362，363，80，227，240，315， 到达同志街桂林路",
                "distance":1595
            },
            {
                "id":"230590",
                "cityName":"长春",
                "cinemaName":"长春中影国际影城（重庆路店）",
                "address":"长春市重庆路88号",
                "telephone":"0431-81870809",
                "latitude":"43.89721",
                "longitude":"125.3401",
                "trafficRoutes":"乘坐公车(或地铁) 104路，271路，361路副线，362路，363路，62路，Y362路公交线路到百祥鞋城站下车",
                "distance":1684
            },
            {
                "id":"853929",
                "cityName":"长春",
                "cinemaName":"吉林省长春市（宽城）中影巨幕国际影城",
                "address":"吉林省长春市宽城区新发路1号欧亚奥特莱斯8楼",
                "telephone":"0431-89235678",
                "latitude":"43.90197",
                "longitude":"125.3354",
                "trafficRoutes":"",
                "distance":1885
            },
            {
                "id":"29426",
                "cityName":"长春",
                "cinemaName":"长春中影•新天地概念影城 ",
                "address":"长春市宽城区白菊路与嫩江路交汇欧亚广场（联合书城旁）",
                "telephone":"0431-81610111",
                "latitude":"43.90718",
                "longitude":"125.3219",
                "trafficRoutes":"25路，274路，245路等多路车！",
                "distance":2274
            },
            {
                "id":"791519",
                "cityName":"长春",
                "cinemaName":"长春万达影城欧亚新生活广场店",
                "address":"长春市朝阳区延安大街99号欧亚新生活购物广场5F",
                "telephone":"0431-82532901",
                "latitude":"43.86796",
                "longitude":"125.3108",
                "trafficRoutes":"乘坐公车(或地铁) 120路，13路，159路，213路，218B路，227路，228路，229路，232路，238路，240路，258路，25路，263路，264路，265路，270路，282路，362路，62路，80路，副120路，362路至  新民广场   站到达",
                "distance":2385
            },
            {
                "id":"1692",
                "cityName":"长春",
                "cinemaName":"长春红旗街万达广场店",
                "address":"长春市朝阳区红旗街616号万达广场娱乐楼4层",
                "telephone":"0431-81936699-805",
                "latitude":"43.87328",
                "longitude":"125.3012",
                "trafficRoutes":"255、62、362、363、239、54、232、234、52、25路公车到达\n公告\n即日起万达影城的全部影讯仅是在（万达电影网www.wandafilm.com）仅有此网站属于万达影城 其他网站的影讯因不属于万达影城官方网站 不保证会准确或及时更新，所以请您以后登陆（万达电影网www.wandafilm.com 可在线选坐订票）或者\n长春万达影城官方新浪微博 weibo.com\/wandacinemas）\n或电话咨询12580（影讯查询专线）",
                "distance":2422
            },
            {
                "id":"3505",
                "cityName":"长春",
                "cinemaName":"长影电影院",
                "address":"长春市朝阳区1118号红旗街与湖西路交汇南行100米（长影制片厂院内）",
                "telephone":"0431-89156966",
                "latitude":"43.86971",
                "longitude":"125.2987",
                "trafficRoutes":"230、264、54、228、281、255、267、80、52路公车到达",
                "distance":2833
            }
        ]

    }]}